{
  "Ajeromi-Ifelodun": [
    {
      "name": "Iya Abu",
      "category": "Plastic fabrication company in Lagos",
      "phone_number": "0803 569 5823",
      "location": "Suru Alaba Market, Lagos - Badagry Expy, Apapa, Lagos",
      "website": "#"
    },
    {
      "name": "rosemus pharmacy",
      "category": "Pharmaceutical company in Lagos",
      "phone_number": "0803 778 8345",
      "location": "226, Idewu St, Lagos",
      "website": "#"
    },
    {
      "name": "Kaodaf Pharmacy",
      "category": "Pharmaceutical company in Lagos",
      "phone_number": "0809 898 7200",
      "location": "7 Wilmer Cres, Apapa, Lagos",
      "website": "#"
    },
    {
      "name": "O. Steves Chemical Company",
      "category": "Chemical industry in Lagos",
      "phone_number": "0802 859 2393",
      "location": "Block K, Naowa Shopping Complex, Suru Bus Stop, Orile, Lagos",
      "website": "#"
    },
    {
      "name": "PRIMEAH PHARMACY",
      "category": "Pharmaceutical company in Lagos",
      "phone_number": "0704 460 4410",
      "location": "5 Cardoso St, Ajengule, Lagos",
      "website": "http://www.primeah.com.ng/"
    },
    {
      "name": "Lagos State Water Corporation",
      "category": "Water utility company in Lagos",
      "phone_number": "",
      "location": "Temidire St, Apapa, Lagos",
      "website": "#"
    },
    {
      "name": "Gabros Water Supply",
      "category": "Water utility company in Lagos",
      "phone_number": "0706 235 1188",
      "location": "26 Ashibejoye St, Olodi-Apapa, Lagos",
      "website": "#"
    },
    {
      "name": "Tinu Plastic Venture",
      "category": "Plastic fabrication company in Lagos",
      "phone_number": "0802 433 2106",
      "location": "Apapa, 125 Lagos - Badagry Expy, Lagos",
      "website": "#"
    },
    {
      "name": "Yemi Enterprises",
      "category": "Plastic fabrication company in Lagos",
      "phone_number": "0803 085 6882",
      "location": "Shop 101, Suru Alaba Market, Asemota St, Apapa, Lagos",
      "website": "#"
    },
    {
      "name": "Chi-Precious Ventures Nigeria Ltd",
      "category": "Chemical industry in Lagos",
      "phone_number": "0803 501 3495",
      "location": "Shop No. 107, Mammy Market, Ojo Rd, Alaba, Lagos",
      "website": "#"
    },
    {
      "name": "Mama Oge Store",
      "category": "Fabric wholesaler in Lagos",
      "phone_number": "0813 086 4220",
      "location": "Block D 1, Naoma Plaza, Suru - Alaba, Lagos - Badagry Expy, Lagos",
      "website": "#"
    },
    {
      "name": "Dabu Pumps Ltd",
      "category": "Machining manufacturer in Lagos",
      "phone_number": "0802 601 6433",
      "location": "Coker Market, Amukoko, 17 A Coker St, 101010",
      "website": "#"
    },
    {
      "name": "Uzormachi Venture",
      "category": "Industrial equipment supplier in Lagos",
      "phone_number": "",
      "location": "Mami Market, By Signal Barracks, Suru Alaba Mile 2, Lagos - Badagry Expy, Lagos",
      "website": "#"
    },
    {
      "name": "Denrobe Pharmaceuticals",
      "category": "Pharmaceutical company in Lagos",
      "phone_number": "0803 342 0140",
      "location": "Ajengule, Lagos",
      "website": "#"
    },
    {
      "name": "Kaz Engineering Construction Company",
      "category": "Construction company in Lagos",
      "phone_number": "",
      "location": "Iwu St, Ajengule, Lagos",
      "website": "#"
    },
    {
      "name": "Spectrabold Innovative Computer Technology",
      "category": "Computer hardware manufacturer in Lagos",
      "phone_number": "0808 807 2206",
      "location": "12 Okoya St, Malu, Lagos",
      "website": "#"
    },
    {
      "name": "Amaco Plastic",
      "category": "Furniture store in Lagos",
      "phone_number": "0807 256 3289",
      "location": "Shop No. 301, Signal Barracks, Alaba Suru, Lagos - Badagry Expy, Lagos",
      "website": "#"
    },
    {
      "name": "ALPHOKING LTD",
      "category": "Shipping company in Lagos",
      "phone_number": "0802 643 3470",
      "location": "20 Hospital St, Apapa, Lagos",
      "website": "#"
    },
    {
      "name": "Total Blending Plant",
      "category": "Chemical plant in Lagos",
      "phone_number": "",
      "location": "Kirikiri Rd, Apapa, Lagos",
      "website": "#"
    },
    {
      "name": "Chizodon Limited",
      "category": "Food products supplier",
      "phone_number": "0803 319 6387",
      "location": "Ajegunle - Apapa, Near Boundary Market, 10 Orodu St, Lagos",
      "website": "#"
    },
    {
      "name": "POLYTECH CONSTRUCTION AND FABRICATION COMPANY",
      "category": "Fabric wholesaler in Lagos",
      "phone_number": "0817 673 3696",
      "location": "NO 16: HASSAN STREET IKOTUN, 300001, Ikotun",
      "website": "#"
    },
    {
      "name": "OLASCO ALUMINIUM COMPANY",
      "category": "Portable building manufacturer in Lagos",
      "phone_number": "0816 235 6549",
      "location": "No 26:IMABA IGANDO, IGANDO 300001, Lagos",
      "website": "#"
    },
    {
      "name": "Tunnaco Company",
      "category": "Metal fabricator in Lagos",
      "phone_number": "0805 613 3163",
      "location": "102 Ipaja Rd, Alimosho, Lagos",
      "website": "#"
    },
    {
      "name": "Jessykole Industrial Company",
      "category": "Manufacturer in Lagos",
      "phone_number": "0803 322 0674",
      "location": "Isuti Rd, Igando, Lagos",
      "website": "#"
    },
    {
      "name": "Industrialist Lamination Company",
      "category": "Print shop in Lagos",
      "phone_number": "0817 448 4235",
      "location": "Idimu, Ikotun, 29 / 31 Dare St, 100265, Lagos",
      "website": "#"
    },
    {
      "name": "Owolabi Company",
      "category": "Furniture maker in Lagos",
      "phone_number": "0803 345 2432",
      "location": "Off Akowonjo, 33 Ogunlana St, Lagos",
      "website": "#"
    },
    {
      "name": "Perpetual Creativity Company",
      "category": "Print shop in Lagos",
      "phone_number": "0802 950 2688",
      "location": "Idimu, Ikotun, 11 Dare St, 100265, Lagos",
      "website": "#"
    },
    {
      "name": "Alfopas Ventures",
      "category": "Plastic fabrication company in Lagos",
      "phone_number": "0803 959 5359",
      "location": "121 Idimu Road, Between Orelope & Ilepo Alhaji B/stop, Egbeda 300001, Lagos",
      "website": "#"
    },
    {
      "name": "Sashy Nigeria Company Ltd.",
      "category": "Brewery",
      "phone_number": "0802 316 4420",
      "location": "Off Isuti Road, Egan, Isheri, 13B Ipo Agba Street, Lagos",
      "website": "#"
    },
    {
      "name": "Ready Writers Publishing Company",
      "category": "Print shop in Lagos",
      "phone_number": "0706 241 8911",
      "location": "Alimosho Bus Stop, Iyana - Ipaja, 34 Raji Oba St, Lagos",
      "website": "#"
    },
    {
      "name": "Okanlawon aluminum company",
      "category": "Manufacturer in Lagos",
      "phone_number": "0706 429 0659",
      "location": "no 3,ATOKE OLUSANYA AVENUE, Igando 300001, Lagos",
      "website": "#"
    },
    {
      "name": "Sleekchops Enterprise",
      "category": "Food processing company in Lagos",
      "phone_number": "0903 456 3023",
      "location": "16 Olalekan Adekoya St, Egbe, Lagos",
      "website": "http://sleekchops.business.site/"
    },
    {
      "name": "Torlink International Company",
      "category": "",
      "phone_number": "0811 244 1189",
      "location": "0811 244 1189",
      "website": "https://torlinkinternational.business.site/"
    },
    {
      "name": "TEXAS CHEMICALS MANUFACTURING Ltd. NIGERIA",
      "category": "Chemical plant in Lagos",
      "phone_number": "0813 925 9998",
      "location": "Ikotun - Idimu Rd, Alimosho, Lagos",
      "website": "http://texaschemicals.com.ng/"
    },
    {
      "name": "Iyke Holdings Nigeria Company",
      "category": "Plumbing supply store in Lagos",
      "phone_number": "0806 644 4732",
      "location": "Idimu, Ikotun - Idimu, 375 Ikotun - Kiando Rd, Isheri, Lagos",
      "website": "#"
    },
    {
      "name": "GOLDEN TREASURE FLOUR COMPANY",
      "category": "Flour mill",
      "phone_number": "0803 582 1564",
      "location": "No 47\\49 ABARANJE ROAD IKOTUN, 300001, Ikotun",
      "website": "#"
    },
    {
      "name": "Timothy. niyi Auto Company",
      "category": "Mechanical engineer in Lagos",
      "phone_number": "0803 300 9694",
      "location": "126 Lasu ROAD Isheri idimu Lagos, Idimu 300001, Lagos",
      "website": "#"
    },
    {
      "name": "Camp Gilgal Pharmacy",
      "category": "Pharmaceutical company in Lagos",
      "phone_number": "0802 358 8897",
      "location": "213, Akinyele Bus stop, Ipaja, Lagos",
      "website": "#"
    },
    {
      "name": "Sob Concept Company Ltd",
      "category": "Construction company in Lagos",
      "phone_number": "0805 663 4814",
      "location": "Suit No. 6, Olugbede Plaza, Egbeda, Idimu Rd, Lagos",
      "website": "#"
    },
    {
      "name": "Ibrotech Profile",
      "category": "Plastic fabrication company in Lagos",
      "phone_number": "0908 566 0286",
      "location": "8 oguntoyinbo close off kudaki road egbe ikotun, 300001, Ikotun",
      "website": "#"
    }
  ],"Alimosho":[{"name":"Iya Abu","category":"Plastic fabrication company in Lagos","phone_number":"0803 569 5823","location":"Suru Alaba Market, Lagos - Badagry Expy, Apapa, Lagos","website":"#"},{"name":"rosemus pharmacy","category":"Pharmaceutical company in Lagos","phone_number":"0803 778 8345","location":"226, Idewu St, Lagos","website":"#"},{"name":"Kaodaf Pharmacy","category":"Pharmaceutical company in Lagos","phone_number":"0809 898 7200","location":"7 Wilmer Cres, Apapa, Lagos","website":"#"},{"name":"O. Steves Chemical Company","category":"Chemical industry in Lagos","phone_number":"0802 859 2393","location":"Block K, Naowa Shopping Complex, Suru Bus Stop, Orile, Lagos","website":"#"},{"name":"PRIMEAH PHARMACY","category":"Pharmaceutical company in Lagos","phone_number":"0704 460 4410","location":"5 Cardoso St, Ajengule, Lagos","website":"http://www.primeah.com.ng/"},{"name":"Lagos State Water Corporation","category":"Water utility company in Lagos","phone_number":"","location":"Temidire St, Apapa, Lagos","website":"#"},{"name":"Gabros Water Supply","category":"Water utility company in Lagos","phone_number":"0706 235 1188","location":"26 Ashibejoye St, Olodi-Apapa, Lagos","website":"#"},{"name":"Tinu Plastic Venture","category":"Plastic fabrication company in Lagos","phone_number":"0802 433 2106","location":"Apapa, 125 Lagos - Badagry Expy, Lagos","website":"#"},{"name":"Yemi Enterprises","category":"Plastic fabrication company in Lagos","phone_number":"0803 085 6882","location":"Shop 101, Suru Alaba Market, Asemota St, Apapa, Lagos","website":"#"},{"name":"Chi-Precious Ventures Nigeria Ltd","category":"Chemical industry in Lagos","phone_number":"0803 501 3495","location":"Shop No. 107, Mammy Market, Ojo Rd, Alaba, Lagos","website":"#"},{"name":"Mama Oge Store","category":"Fabric wholesaler in Lagos","phone_number":"0813 086 4220","location":"Block D 1, Naoma Plaza, Suru - Alaba, Lagos - Badagry Expy, Lagos","website":"#"},{"name":"Dabu Pumps Ltd","category":"Machining manufacturer in Lagos","phone_number":"0802 601 6433","location":"Coker Market, Amukoko, 17 A Coker St, 101010","website":"#"},{"name":"Uzormachi Venture","category":"Industrial equipment supplier in Lagos","phone_number":"","location":"Mami Market, By Signal Barracks, Suru Alaba Mile 2, Lagos - Badagry Expy, Lagos","website":"#"},{"name":"Denrobe Pharmaceuticals","category":"Pharmaceutical company in Lagos","phone_number":"0803 342 0140","location":"Ajengule, Lagos","website":"#"},{"name":"Kaz Engineering Construction Company","category":"Construction company in Lagos","phone_number":"","location":"Iwu St, Ajengule, Lagos","website":"#"},{"name":"Spectrabold Innovative Computer Technology","category":"Computer hardware manufacturer in Lagos","phone_number":"0808 807 2206","location":"12 Okoya St, Malu, Lagos","website":"#"},{"name":"Amaco Plastic","category":"Furniture store in Lagos","phone_number":"0807 256 3289","location":"Shop No. 301, Signal Barracks, Alaba Suru, Lagos - Badagry Expy, Lagos","website":"#"},{"name":"ALPHOKING LTD","category":"Shipping company in Lagos","phone_number":"0802 643 3470","location":"20 Hospital St, Apapa, Lagos","website":"#"},{"name":"Total Blending Plant","category":"Chemical plant in Lagos","phone_number":"","location":"Kirikiri Rd, Apapa, Lagos","website":"#"},{"name":"Chizodon Limited","category":"Food products supplier","phone_number":"0803 319 6387","location":"Ajegunle - Apapa, Near Boundary Market, 10 Orodu St, Lagos","website":"#"},{"name":"POLYTECH CONSTRUCTION AND FABRICATION COMPANY","category":"Fabric wholesaler in Lagos","phone_number":"0817 673 3696","location":"NO 16: HASSAN STREET IKOTUN, 300001, Ikotun","website":"#"},{"name":"OLASCO ALUMINIUM COMPANY","category":"Portable building manufacturer in Lagos","phone_number":"0816 235 6549","location":"No 26:IMABA IGANDO, IGANDO 300001, Lagos","website":"#"},{"name":"Tunnaco Company","category":"Metal fabricator in Lagos","phone_number":"0805 613 3163","location":"102 Ipaja Rd, Alimosho, Lagos","website":"#"},{"name":"Jessykole Industrial Company","category":"Manufacturer in Lagos","phone_number":"0803 322 0674","location":"Isuti Rd, Igando, Lagos","website":"#"},{"name":"Industrialist Lamination Company","category":"Print shop in Lagos","phone_number":"0817 448 4235","location":"Idimu, Ikotun, 29 / 31 Dare St, 100265, Lagos","website":"#"},{"name":"Owolabi Company","category":"Furniture maker in Lagos","phone_number":"0803 345 2432","location":"Off Akowonjo, 33 Ogunlana St, Lagos","website":"#"},{"name":"Perpetual Creativity Company","category":"Print shop in Lagos","phone_number":"0802 950 2688","location":"Idimu, Ikotun, 11 Dare St, 100265, Lagos","website":"#"},{"name":"Alfopas Ventures","category":"Plastic fabrication company in Lagos","phone_number":"0803 959 5359","location":"121 Idimu Road, Between Orelope & Ilepo Alhaji B/stop, Egbeda 300001, Lagos","website":"#"},{"name":"Sashy Nigeria Company Ltd.","category":"Brewery","phone_number":"0802 316 4420","location":"Off Isuti Road, Egan, Isheri, 13B Ipo Agba Street, Lagos","website":"#"},{"name":"Ready Writers Publishing Company","category":"Print shop in Lagos","phone_number":"0706 241 8911","location":"Alimosho Bus Stop, Iyana - Ipaja, 34 Raji Oba St, Lagos","website":"#"},{"name":"Okanlawon aluminum company","category":"Manufacturer in Lagos","phone_number":"0706 429 0659","location":"no 3,ATOKE OLUSANYA AVENUE, Igando 300001, Lagos","website":"#"},{"name":"Sleekchops Enterprise","category":"Food processing company in Lagos","phone_number":"0903 456 3023","location":"16 Olalekan Adekoya St, Egbe, Lagos","website":"http://sleekchops.business.site/"},{"name":"Torlink International Company","category":"","phone_number":"0811 244 1189","location":"0811 244 1189","website":"https://torlinkinternational.business.site/"},{"name":"TEXAS CHEMICALS MANUFACTURING Ltd. NIGERIA","category":"Chemical plant in Lagos","phone_number":"0813 925 9998","location":"Ikotun - Idimu Rd, Alimosho, Lagos","website":"http://texaschemicals.com.ng/"},{"name":"Iyke Holdings Nigeria Company","category":"Plumbing supply store in Lagos","phone_number":"0806 644 4732","location":"Idimu, Ikotun - Idimu, 375 Ikotun - Kiando Rd, Isheri, Lagos","website":"#"},{"name":"GOLDEN TREASURE FLOUR COMPANY","category":"Flour mill","phone_number":"0803 582 1564","location":"No 47\\49 ABARANJE ROAD IKOTUN, 300001, Ikotun","website":"#"},{"name":"Timothy. niyi Auto Company","category":"Mechanical engineer in Lagos","phone_number":"0803 300 9694","location":"126 Lasu ROAD Isheri idimu Lagos, Idimu 300001, Lagos","website":"#"},{"name":"Camp Gilgal Pharmacy","category":"Pharmaceutical company in Lagos","phone_number":"0802 358 8897","location":"213, Akinyele Bus stop, Ipaja, Lagos","website":"#"},{"name":"Sob Concept Company Ltd","category":"Construction company in Lagos","phone_number":"0805 663 4814","location":"Suit No. 6, Olugbede Plaza, Egbeda, Idimu Rd, Lagos","website":"#"},{"name":"Ibrotech Profile","category":"Plastic fabrication company in Lagos","phone_number":"0908 566 0286","location":"8 oguntoyinbo close off kudaki road egbe ikotun, 300001, Ikotun","website":"#"}]}
