[{"name":"Stelog Limited","category":"Oil refinery in Lekki","phone_number":"0803 336 3636","location":"John-Vic Igboanugo St, Lekki Phase I, Lagos","website":"http://www.stelogs.com/"},{"name":"HealthPlus Lekki 2","category":"Pharmaceutical company in Lekki","phone_number":"0909 176 9406","location":"Oba Yekini Elegushi Rd, Lekki Phase I, Lagos","website":"http://www.healthplus.com.ng/"},{"name":"Maxfront Technologies Limited","category":"Software company in Lekki","phone_number":"01 453 4256","location":"Office Building, 2nd Floor, Royal, KM 25 Lekki - Epe Expy, Aja, Lagos","website":"http://www.maxfront.com/"},{"name":"Dafix Company","category":"Design agency in Lekki","phone_number":"0805 602 5133","location":"2 Olasupo Palmer Close, Lekki, Eti-Osa 101222, Lagos","website":"http://bit.ly/DafixProfileHires"},{"name":"Viathan Engineering Limited","category":"Power station in Lekki","phone_number":"01 631 2911","location":"Lekki Phase 1, Lekki","website":"http://www.viathan-ng.com/"},{"name":"Emilinks Limited - Door Company","category":"Door manufacturer in Lekki","phone_number":"0704 527 3131","location":"13, local government, Kilometre, 6 Lekki - Epe Expy, Lagos","website":"http://www.emilinks.com/"},{"name":"Global Fleet Oil","category":"Oil refinery in Lekki","phone_number":"","location":"Lekki-Epe Expressway, Aja, Lekki","website":"#"},{"name":"Transmission Company of Nigeria Ajah Sub Region","category":"Power station in Lekki","phone_number":"0802 328 3891","location":"5, Aja, Lekki","website":"#"},{"name":"RevolutionPlus Property Devt Company Ltd","category":"Real estate developer in Lekki","phone_number":"0903 036 1141","location":"41 Freedom Way Beside Stanbic IBTC Bank Plc Ikate Roundabout, Lekki","website":"https://revolutionplusproperty.com/"},{"name":"Fadeke Investment","category":"Plastic fabrication company in Lekki","phone_number":"0813 784 1693","location":"Akinyemi Shopping Complex, Ajah Market, Ajah, Addo Rd, Lekki","website":"#"},{"name":"Mariam Adeyemi Company","category":"Business management consultant in Lekki","phone_number":"0809 316 8802","location":"9 Iweanya Ugbogoh Cres, Lekki Phase I, Lekki","website":"http://www.mariamadeeymicompany.com/"},{"name":"First Synergi Constructions Limited","category":"Construction company in Lekki","phone_number":"0812 268 7371","location":"Emma Abimbola Cole, Lekki Phase I, Lagos","website":"http://www.firstsynergiconstruction.com/"},{"name":"Wifisoft Technologies","category":"Software company in Lekki","phone_number":"0703 255 4555","location":"8 The Providence St, Lekki Phase I, Lagos","website":"http://wifisoft.com.ng/"},{"name":"Wifisoft Technologies","category":"Software company in Lekki","phone_number":"0703 255 4555","location":"2nd Floor, The Garnet Building, Igbo Efon Roundabout, Lekki - Epe Express Road, Lekki","website":"http://wifisoft.com.ng/"},{"name":"Arion Energy Services Ltd","category":"Oil & natural gas company in Lekki","phone_number":"0908 076 3057","location":"Block 77, Oyinbo Adjarho Street, off Ayinde Akinmade off Admiralty Way, Lekki Phase 1","website":"http://www.arionenergy.ng/"},{"name":"JMG Limited (Lekki)","category":"Generator shop in Lekki","phone_number":"0700 011 2233","location":"Lekki Epe Express Way, Near Bus Stop, After Jakande RoundAbout, Ologolo, Lekki","website":"http://www.jmglimited.com/"},{"name":"Judex Ventures","category":"Food products supplier","phone_number":"0803 999 2403","location":"Shop J12, Ajah Market, Opposite Ajah Park, Ajah, Lekki-Epe Expy","website":"#"},{"name":"Remedia pharmacy lekki","category":"Pharmaceutical company in Lekki","phone_number":"0808 910 1669","location":"41b Freedom Way, Lekki Phase I, Lagos","website":"#"},{"name":"Almonds and vanilla THE CAKERY COMPANY","category":"Cake shop","phone_number":"0803 201 1143","location":"Shop 3-5 Ikota shopping complex Ajah lagos state, Aja, Lekki","website":"http://www.almondsnvanilla.com/"},{"name":"Best Borehole And Water","category":"Water utility company in Lekki","phone_number":"0802 312 7714","location":"Opposite Olumegbon Palace, Addo Rd","website":"#"}]